,name,country,lat,long,date,temp,humidity,cloud,wind
0,Sistranda,NO,63.73,8.83,1569293143,49.35,87,0,16.11
1,Ust-Ordynskiy,RU,52.8,104.75,1569293143,60.8,63,0,11.18
2,Tuktoyaktuk,CA,69.44,-133.03,1569293143,37.4,86,75,8.05
3,Terrace Bay,CA,48.78,-87.1,1569293143,49.37,95,38,3.58
4,Mahebourg,MU,-20.41,57.7,1569293144,69.35,68,75,16.11
5,Puerto Ayora,EC,-0.74,-90.35,1569292869,68.0,91,3,5.99
6,Avarua,CK,-21.21,-159.78,1569293144,71.6,73,99,5.82
7,Bairnsdale,AU,-37.83,147.63,1569293144,62.44,43,54,4.0
8,Katsuura,JP,33.93,134.5,1569293145,75.02,69,75,5.82
9,Atbasar,KZ,51.81,68.36,1569293145,40.55,72,0,20.67
10,Kodiak,US,39.95,-94.76,1569293145,65.59,88,1,5.82
11,Busselton,AU,-33.64,115.35,1569293145,73.33,30,0,14.99
12,Saint-Philippe,CA,45.36,-73.48,1569293146,66.11,88,75,9.17
13,Aklavik,CA,68.22,-135.01,1569293146,39.2,100,90,3.36
14,Umm Lajj,SA,25.02,37.27,1569293146,85.37,72,0,12.8
15,Coahuayana,MX,18.62,-100.35,1569293146,73.31,92,27,2.64
16,Punta Arenas,CL,-53.16,-70.91,1569293146,48.09,81,75,4.7
17,Awjilah,LY,29.14,21.3,1569293147,67.01,68,0,6.55
18,Imbituba,BR,-28.24,-48.67,1569293146,59.0,82,75,4.7
19,Vaini,IN,15.34,74.49,1569293147,72.52,94,75,1.61
20,Mbigou,GA,-1.9,11.91,1569293147,71.15,96,100,2.35
21,Ancud,CL,-41.87,-73.83,1569293147,48.2,93,75,4.7
22,La Libertad,PE,-16.38,-71.56,1569292968,55.4,37,0,4.7
23,Rocha,UY,-34.48,-54.34,1569293148,44.87,93,0,6.46
24,Hami,CN,42.84,93.51,1569293148,79.79,11,69,6.42
25,Ucluelet,CA,48.94,-125.55,1569293148,57.34,96,100,1.99
26,Georgetown,GY,6.8,-58.16,1569292885,73.4,94,20,4.7
27,Cabo San Lucas,MX,22.89,-109.91,1569293074,80.91,78,5,19.46
28,Albany,US,42.65,-73.75,1569293149,65.05,93,90,6.93
29,Kununurra,AU,-15.77,128.74,1569293149,86.0,20,0,14.99
30,Mar del Plata,AR,-46.43,-67.52,1569293149,54.77,59,11,21.07
31,Bambous Virieux,MU,-20.34,57.76,1569293149,69.37,68,75,16.11
32,Rikitea,PF,-23.12,-134.97,1569293150,69.53,73,49,14.34
33,Fernandina Beach,US,30.67,-81.46,1569293085,70.0,78,1,3.85
34,New Norfolk,AU,-42.78,147.06,1569293150,57.06,47,75,13.87
35,Montepuez,MZ,-13.13,39.0,1569293150,64.49,96,44,1.19
36,Nazira,IN,26.91,94.73,1569292923,71.6,94,90,11.41
37,Tateyama,JP,36.66,137.31,1569293151,76.19,64,75,3.36
38,Nanga Eboko,CM,4.68,12.37,1569293151,69.17,99,80,3.62
39,Cape Town,ZA,-33.93,18.42,1569293151,59.14,58,0,16.11
40,Caravelas,BR,-17.73,-39.27,1569293151,72.05,69,94,21.23
41,Butaritari,KI,3.07,172.79,1569293151,85.37,68,20,11.41
42,Bethel,US,60.79,-161.76,1569292945,46.4,61,75,12.75
43,Valle de Guadalupe,MX,21.01,-102.61,1569293152,70.79,55,4,1.54
44,Airai,TL,-8.93,125.41,1569293152,85.55,54,15,6.04
45,Bandarbeyla,SO,9.49,50.81,1569293152,74.93,69,53,14.38
46,Upernavik,GL,72.79,-56.15,1569293152,37.49,89,100,6.89
47,Adrar,DZ,27.87,-0.29,1569293153,86.0,13,0,11.41
48,Pisco,PE,-13.71,-76.2,1569293153,62.82,88,90,5.82
49,Chokurdakh,RU,70.62,147.9,1569293153,32.63,62,99,2.57
50,Qaanaaq,GL,77.48,-69.36,1569293153,22.91,84,100,0.67
51,Thompson,CA,55.74,-97.86,1569292927,68.0,52,75,26.4
52,Dikson,RU,73.51,80.55,1569293154,36.05,90,69,19.62
53,Yekaterinovka,RU,46.69,38.75,1569293154,54.05,64,44,17.83
54,Isla Aguada,MX,18.78,-91.49,1569293154,84.2,79,75,4.7
55,Richards Bay,ZA,-28.77,32.06,1569293154,65.75,69,100,16.84
56,Vestmannaeyjar,IS,63.44,-20.27,1569293154,50.81,93,100,9.44
57,Praia da Vitoria,PT,38.73,-27.07,1569293155,64.4,77,20,10.25
58,Tiksi,RU,71.64,128.87,1569292968,36.41,82,94,1.86
59,Rio Grande,BR,-32.03,-52.1,1569293079,55.0,82,63,3.87
60,Serenje,ZM,-13.23,30.22,1569293155,59.63,57,0,5.12
61,Itarema,BR,-2.92,-39.92,1569293155,77.99,80,28,11.25
62,Jamestown,AU,-33.21,138.6,1569293156,60.89,43,0,4.81
63,Kaitangata,NZ,-46.28,169.85,1569293156,46.0,67,85,8.99
64,Ribeira Grande,PT,38.52,-28.7,1569293156,69.89,63,53,9.35
65,Palatka,RU,60.1,150.94,1569293156,28.85,92,100,19.75
66,Manokwari,ID,-0.87,134.08,1569293156,78.35,78,40,5.5
67,Hobart,AU,-42.88,147.33,1569293108,57.04,47,75,13.87
68,Souillac,FR,45.6,-0.6,1569293157,60.08,93,100,5.82
69,Kleive,NO,62.8,7.64,1569293157,47.34,93,0,6.93
70,Yenagoa,NG,4.92,6.26,1569293157,76.19,93,100,4.36
71,Akcakoca,TR,41.09,31.12,1569293157,54.59,67,91,1.12
72,Villa Carlos Paz,AR,-31.42,-64.5,1569293158,55.53,62,0,4.7
73,Soc Trang,VN,9.6,105.98,1569293158,86.0,79,20,8.05
74,Oil City,US,41.43,-79.71,1569293158,60.21,77,1,5.82
75,Sarangani,PH,5.4,125.46,1569293158,82.49,72,0,10.92
76,Shimoda,JP,34.7,138.93,1569293158,82.31,69,75,18.34
77,Pontianak,ID,-0.02,109.34,1569293159,80.6,88,75,4.7
78,Bredasdorp,ZA,-34.53,20.04,1569293159,47.84,87,43,4.7
79,Verkhoyansk,RU,67.55,133.39,1569293159,41.45,55,34,8.68
80,Lagoa,PT,37.14,-8.45,1569293159,63.66,77,0,2.24
81,Okhtyrka,UA,50.31,34.89,1569293160,35.15,78,0,2.68
82,Klyuchi,RU,52.25,79.17,1569293160,58.91,34,0,21.32
83,Mataura,NZ,-46.19,168.86,1569293160,48.99,76,58,15.01
84,Hilo,US,19.71,-155.08,1569293160,73.98,66,90,9.17
85,Guerrero Negro,MX,27.97,-114.04,1569293161,70.97,79,0,13.69
86,Khatanga,RU,71.98,102.47,1569293161,40.73,72,100,11.41
87,Kottayam,IN,9.59,76.52,1569293161,78.8,83,75,2.24
88,Severo-Kurilsk,RU,50.68,156.12,1569293161,49.91,84,100,22.12
89,Xifeng,CN,42.73,124.72,1569293161,66.11,53,0,12.75
90,Kapaa,US,22.08,-159.32,1569293162,81.19,74,75,18.34
91,Viedma,AR,-40.81,-62.99,1569293162,56.03,34,0,9.35
92,Hithadhoo,MV,-0.6,73.08,1569293162,82.13,77,100,14.32
93,Esperance,AU,-33.86,121.89,1569293163,64.4,55,100,14.99
94,Port Alfred,ZA,-33.59,26.89,1569293163,55.99,76,0,4.0
95,Zhigansk,RU,66.77,123.37,1569293163,40.19,59,0,2.89
96,Nikolskoye,RU,59.7,30.79,1569293163,35.78,74,40,8.95
97,Hermanus,ZA,-34.42,19.24,1569293164,54.52,94,0,5.01
98,Arraial do Cabo,BR,-22.97,-42.02,1569293164,65.57,75,100,14.38
99,Mount Gambier,AU,-37.83,140.78,1569293164,55.4,71,75,12.75
100,Amuntai,ID,-2.42,115.25,1569292913,98.87,32,76,3.13
101,Te Anau,NZ,-45.41,167.72,1569293164,44.51,64,56,9.01
102,San Cristobal,HN,14.68,-86.92,1569293164,69.17,90,84,3.65
103,Bonavista,CA,48.65,-53.11,1569293165,59.0,82,100,13.0
104,Ushuaia,AR,-54.81,-68.31,1569293165,42.8,87,20,6.93
105,Ukiah,US,39.15,-123.21,1569293165,62.22,74,0,3.13
106,Atuona,PF,-9.8,-139.03,1569293165,79.25,79,37,21.32
107,Mbala,ZM,-8.85,31.37,1569293166,65.21,47,0,7.11
108,Namibe,AO,-15.19,12.15,1569293166,67.01,87,2,0.83
109,Lebu,ET,8.96,38.73,1569293166,56.21,91,100,0.56
110,Barrow,AR,-38.31,-60.23,1569293166,51.35,87,0,6.69
111,Kamaishi,JP,39.28,141.86,1569293166,71.6,68,75,10.29
112,Chuy,UY,-33.69,-53.46,1569293167,51.71,82,42,9.6
113,Torbay,CA,47.66,-52.73,1569293167,57.74,100,90,21.92
114,Ponta do Sol,BR,-20.63,-46.0,1569293167,61.25,68,2,10.36
115,Talnakh,RU,69.49,88.39,1569293167,37.4,74,75,26.84
116,Port Augusta,AU,-32.49,137.76,1569293168,61.5,54,0,9.17
117,Yellowknife,CA,62.45,-114.38,1569292998,44.29,70,75,12.75
118,Ust-Maya,RU,60.42,134.54,1569293168,38.39,81,100,9.15
119,Sao Joao da Barra,BR,-21.64,-41.05,1569293168,60.35,86,92,3.96
120,Cayenne,GF,4.94,-52.33,1569293168,77.0,94,0,4.09
121,Zhezkazgan,KZ,47.8,67.71,1569293169,42.8,56,27,11.18
122,Port Moresby,PG,-9.47,147.16,1569293169,86.0,66,75,14.99
123,Corigliano Calabro,IT,39.6,16.52,1569293169,69.01,93,100,1.99
124,Vila Velha,BR,-3.71,-38.6,1569293169,78.8,78,75,14.99
125,Albox,ES,37.39,-2.15,1569293170,62.91,82,0,1.99
126,Dingle,PH,11.0,122.67,1569293170,86.27,70,18,6.89
127,Carnarvon,ZA,-30.97,22.13,1569293170,44.69,50,0,12.37
128,Solok,ID,-0.79,100.66,1569293171,76.19,78,96,1.39
129,Port Hawkesbury,CA,45.62,-61.36,1569293171,66.0,88,90,9.17
130,Aykhal,RU,65.95,111.51,1569293171,35.6,59,75,8.95
131,Talaya,RU,55.79,84.89,1569293171,49.42,76,0,20.13
132,Port-Cartier,CA,50.03,-66.88,1569293171,54.39,81,40,4.7
133,Sandy Bay,AU,-42.9,147.33,1569293172,57.04,47,75,13.87
134,Klaksvik,FO,62.23,-6.59,1569293172,51.8,100,85,19.46
135,Hammerfest,NO,70.66,23.68,1569293172,37.4,86,75,9.17
136,Ormara,PK,25.21,64.64,1569293172,84.65,69,0,1.63
137,Nizhnevartovsk,RU,60.93,76.58,1569293173,41.0,86,75,22.37
138,Inhambane,MZ,-23.87,35.38,1569293173,67.55,87,100,8.63
139,Saint-Denis,FR,48.94,2.36,1569293173,59.2,77,0,11.41
140,Deputatskiy,RU,69.3,139.9,1569293174,34.25,79,100,3.06
141,Bubaque,GW,11.28,-15.83,1569293174,81.59,71,100,3.13
142,Honiara,SB,-9.43,159.96,1569293174,86.0,66,75,11.41
143,Amalner,IN,21.04,75.07,1569293174,78.89,81,93,8.59
144,Saint George,GR,39.45,22.34,1569293105,61.77,87,40,2.15
145,Westport,US,41.14,-73.36,1569293175,75.11,78,90,6.93
146,Victoria,BN,5.28,115.24,1569292906,90.18,49,75,10.29
147,Sao Filipe,CV,14.9,-24.5,1569293175,80.69,87,100,18.16
148,Bukama,CD,-9.2,25.85,1569293175,67.91,65,0,2.39
149,Sinnamary,GF,5.38,-52.96,1569293176,81.59,81,100,11.83
150,Cameta,US,33.01,-90.84,1569293176,81.37,74,75,2.91
151,Alekseyevskaya,RU,45.77,40.15,1569293176,55.0,71,69,9.69
152,Buraydah,SA,26.33,43.97,1569293176,78.8,31,0,5.82
153,Burnie,AU,-41.05,145.91,1569293177,60.01,46,84,13.0
154,Avera,US,33.19,-82.53,1569293177,69.35,68,1,3.96
155,Waipawa,NZ,-39.94,176.59,1569293177,51.01,90,87,3.0
156,Nishihara,JP,35.74,139.53,1569293177,84.99,58,75,6.93
157,Arcachon,FR,44.65,-1.18,1569293177,61.45,87,75,3.36
158,Puerto Ayacucho,CO,5.66,-67.63,1569293178,75.29,83,29,4.29
159,Norman Wells,CA,65.28,-126.83,1569292930,48.2,61,75,5.82
160,Nicoya,CR,10.15,-85.45,1569293178,74.84,88,75,3.36
161,Kalabo,ZM,-15.0,22.67,1569293178,65.03,23,88,6.42
162,Kruisfontein,ZA,-34.0,24.73,1569293179,48.29,80,0,7.18
163,Ciudad Valles,MX,21.99,-99.01,1569293179,64.85,98,51,0.87
164,Cherskiy,RU,68.75,161.3,1569293179,34.97,68,96,3.4
165,Hasaki,JP,35.73,140.83,1569293179,83.61,62,75,4.7
166,Thayetmyo,MM,19.32,95.18,1569293179,83.03,78,92,2.17
167,Longyan,CN,25.1,117.03,1569293180,78.17,42,39,4.12
168,Necochea,AR,-38.55,-58.74,1569293180,51.3,63,0,4.0
169,Kudahuvadhoo,MV,2.67,72.89,1569293180,80.87,84,100,21.03
170,Ankazobe,MG,-18.32,47.12,1569293180,57.2,87,75,6.93
171,Acapulco,MX,16.86,-99.88,1569293181,84.2,79,75,1.41
172,Bluff,AU,-23.58,149.07,1569293181,85.37,20,5,15.55
173,Smolenka,PL,54.15,22.76,1569293181,36.0,94,2,7.2
174,San Felipe,CL,-32.75,-70.73,1569293181,57.0,90,0,2.17
175,Batsfjord,NO,70.63,29.72,1569293181,40.37,75,98,19.86
176,Ostrovnoy,RU,68.05,39.51,1569293182,36.23,92,100,21.39
177,Banamba,ML,13.55,-7.45,1569293182,74.75,78,35,7.94
178,Norrtalje,SE,59.76,18.7,1569293182,46.71,87,0,4.7
179,Maragogi,BR,-9.01,-35.22,1569293182,69.35,95,38,4.21
180,Bulaevo,KZ,54.91,70.44,1569293182,40.91,77,93,21.5
181,Karwar,IN,14.8,74.13,1569293183,79.43,78,100,2.01
182,Coihaique,CL,-45.58,-72.07,1569293183,50.0,76,90,6.93
183,Hailar,CN,49.2,119.7,1569293183,60.17,35,0,5.91
184,Hongjiang,CN,27.21,109.83,1569293183,78.35,37,36,3.42
185,Ankang,CN,32.73,108.99,1569293184,68.45,58,100,3.0
186,Solvychegodsk,RU,61.33,46.92,1569293184,36.05,97,100,6.8
187,Mbekenyera,TZ,-10.0,38.98,1569293184,67.01,96,10,1.07
188,Nantucket,US,41.28,-70.1,1569293004,69.15,94,20,17.22
189,Zhizdra,RU,53.75,34.74,1569293184,32.99,81,77,5.01
190,Timmins,CA,48.48,-81.33,1569293185,48.2,93,40,4.7
191,Tuatapere,NZ,-46.13,167.69,1569293185,48.99,76,98,15.01
192,Stephenville Crossing,CA,48.5,-58.44,1569293185,51.31,93,40,2.24
193,Sulangan,PH,11.14,123.72,1569293185,83.21,75,0,5.26
194,Chelmza,PL,53.18,18.6,1569293185,44.22,100,0,4.7
195,Castro,CL,-42.48,-73.76,1569293186,48.2,93,75,4.7
196,East London,ZA,-33.02,27.91,1569293186,49.37,85,0,6.55
197,Ulagan,RU,50.63,87.96,1569293186,51.71,61,0,6.31
198,Najran,SA,17.54,44.22,1569293186,71.6,28,0,2.44
199,Betong,MY,5.77,101.07,1569293186,83.39,62,88,3.44
200,Jumla,NP,29.28,82.18,1569293187,58.91,74,8,2.53
201,Maine-Soroa,NE,13.21,12.02,1569293187,86.81,20,0,8.55
202,Verkhnyaya Inta,RU,65.99,60.32,1569293187,34.25,96,100,17.09
203,Saint-Augustin,CA,45.63,-73.98,1569293187,65.75,88,75,9.17
204,Pimentel,BR,-3.7,-45.5,1569293187,74.93,86,0,4.65
205,Sandpoint,US,48.28,-116.55,1569293188,53.4,76,90,5.82
206,Narsaq,GL,60.91,-46.05,1569293188,41.0,75,99,6.93
207,Lingao,CN,19.91,109.69,1569293188,80.33,70,100,13.76
208,Muros,ES,42.77,-9.06,1569293188,64.92,100,90,13.87
209,Egvekinot,RU,66.32,-179.17,1569293189,29.93,75,100,7.09
210,Gien,FR,47.69,2.63,1569293189,60.01,83,100,8.9
211,Isangel,VU,-19.55,169.27,1569293189,80.6,54,75,9.17
212,Concepcion del Oro,MX,24.63,-101.42,1569293189,68.63,56,77,11.86
213,Minbu,MM,20.18,94.88,1569293190,76.55,92,98,4.36
214,Touros,BR,-5.2,-35.46,1569293190,71.6,94,75,3.36
215,Lianran,CN,24.92,102.47,1569293190,68.0,55,40,11.18
216,The Valley,AI,18.22,-63.06,1569293190,80.58,83,40,13.87
217,Porto Novo,BR,-23.68,-45.44,1569293191,60.8,63,75,5.82
218,Singaraja,ID,-8.11,115.08,1569293191,80.33,69,0,0.22
219,Belmonte,PT,40.36,-7.35,1569293191,50.16,95,0,4.23
220,Kangaatsiaq,GL,68.31,-53.46,1569293191,39.65,94,99,12.03
221,Puerto Colombia,CO,10.99,-74.96,1569293191,76.69,100,75,3.36
222,La Ronge,CA,55.1,-105.3,1569293192,55.4,58,75,13.87
223,Mehamn,NO,71.03,27.85,1569293192,37.13,74,99,12.88
224,Mahibadhoo,MV,3.78,72.97,1569293192,79.97,86,100,19.08
225,Clyde River,CA,70.47,-68.59,1569293192,30.2,86,75,5.82
226,Mulanje,MW,-16.03,35.5,1569293192,65.21,59,15,1.5
227,Roald,NO,62.58,6.12,1569293193,48.67,93,0,5.82
228,Palu,ID,-0.9,119.87,1569293193,85.01,66,43,7.05
229,Yuli,CN,24.82,106.77,1569293193,72.95,63,26,2.48
230,Half Moon Bay,US,37.46,-122.43,1569293193,70.63,33,5,8.05
231,Camacha,PT,33.08,-16.33,1569293193,69.01,82,20,5.82
232,Marsh Harbour,BS,26.54,-77.06,1569293194,78.35,79,0,15.86
233,Provideniya,RU,64.42,-173.23,1569293194,39.2,60,40,6.71
234,Cap Malheureux,MU,-19.98,57.61,1569293194,69.44,68,75,16.11
235,Casa Grande,PE,-7.74,-79.19,1569293194,60.8,87,40,9.17
236,Kiunga,PG,-6.12,141.3,1569293195,82.13,70,98,4.29
237,Hervey Bay,AU,-25.3,152.85,1569293195,81.32,47,1,12.75
238,Kumluca,TR,36.37,30.29,1569293195,52.25,65,0,1.59
239,Longyearbyen,NO,78.22,15.63,1569293195,35.6,93,75,10.29
240,Biak,ID,-0.91,122.88,1569293195,77.63,45,0,4.97
241,Amapa,HN,15.09,-87.97,1569293196,82.4,83,75,5.82
242,Havoysund,NO,71.0,24.66,1569293196,37.4,86,75,9.17
243,Padang,ID,-0.92,100.36,1569293196,78.71,86,89,13.58
244,Ergani,TR,38.27,39.76,1569293196,49.33,52,0,3.36
245,Onega,RU,63.91,38.09,1569293197,40.19,76,100,17.31
246,Kavaratti,IN,10.57,72.64,1569293197,82.67,77,97,9.91
247,Mozarlandia,BR,-14.74,-50.57,1569293197,88.07,29,78,3.0
248,Vardo,US,39.62,-77.74,1569293197,71.06,73,40,10.29
249,Vila Franca do Campo,PT,37.72,-25.43,1569293198,68.83,82,20,1.12
250,Champerico,MX,16.38,-93.6,1569293198,73.4,94,90,6.93
251,Port Elizabeth,US,39.31,-74.98,1569293198,76.69,61,90,5.82
252,Meulaboh,ID,4.14,96.13,1569293198,80.51,81,12,5.17
253,Guatire,VE,10.47,-66.54,1569293199,75.51,74,20,6.2
254,Novikovo,RU,51.15,37.89,1569293199,34.25,81,0,4.14
255,Gacko,BA,43.17,18.53,1569293199,60.8,93,40,8.05
256,Sabang,PH,13.8,121.11,1569293199,86.0,75,21,4.0
257,Nanortalik,GL,60.14,-45.24,1569293200,41.63,76,98,6.55
258,Tomatlan,MX,19.93,-105.25,1569293200,82.13,83,100,16.08
259,Bada,NG,7.45,3.75,1569293200,72.77,98,100,1.9
260,Storforshei,NO,66.4,14.52,1569293200,34.5,88,89,3.0
261,Valparaiso,US,41.47,-87.06,1569293113,59.29,82,1,5.99
262,Salamiyah,SY,35.01,37.05,1569293189,55.49,81,0,4.05
263,Port Lincoln,AU,-34.72,135.86,1569293201,54.77,76,82,9.71
264,Mareeba,AU,-16.99,145.42,1569293201,82.26,54,96,17.22
265,Portland,US,43.66,-70.25,1569292624,69.12,83,90,9.17
266,Yeppoon,AU,-23.13,150.74,1569293202,86.0,33,0,9.17
267,Otyniya,UA,48.74,24.86,1569293202,46.4,93,75,2.24
268,Bodden Town,KY,19.28,-81.25,1569293202,84.09,79,20,4.25
269,Madimba,CM,4.42,9.93,1569293202,78.8,94,75,2.24
270,Iqaluit,CA,63.75,-68.52,1569293202,35.29,74,75,8.05
271,Belle Fourche,US,44.67,-103.85,1569293203,55.81,76,1,3.18
272,Cidreira,BR,-30.17,-50.22,1569293203,58.55,72,100,13.29
273,Russell,US,38.9,-98.86,1569293196,71.17,56,1,12.75
274,Samarai,PG,-10.62,150.67,1569293203,79.61,69,38,8.75
275,Tasiilaq,GL,65.61,-37.64,1569293203,42.8,87,100,29.97
276,Timra,SE,62.49,17.33,1569293204,44.38,87,100,3.36
277,Alyangula,AU,-13.85,136.42,1569293204,87.8,40,48,8.05
278,Peleduy,RU,59.63,112.75,1569293204,47.57,49,34,5.44
279,Dubbo,AU,-32.25,148.6,1569293204,64.4,27,0,8.05
280,Presidencia Roque Saenz Pena,AR,-26.79,-60.44,1569293205,63.41,65,0,5.86
281,Eureka,US,40.8,-124.16,1569293063,60.55,87,1,11.41
282,Maymyo,MM,22.03,96.47,1569293205,84.83,66,88,1.81
283,Constitucion,MX,23.99,-104.67,1569293074,68.0,52,75,3.36
284,Peniche,PT,39.36,-9.38,1569293205,62.17,93,20,2.24
285,Jamkhed,IN,18.74,75.31,1569293205,76.91,78,100,5.14
286,Harbin,CN,45.77,126.62,1569293206,66.56,39,0,4.47
287,Shenjiamen,CN,29.96,122.3,1569293206,72.05,76,9,14.03
288,Grand-Santi,GF,4.27,-54.38,1569293206,71.69,98,90,0.69
289,Venezuela,CU,21.74,-78.8,1569293206,75.29,93,100,5.5
290,Marienburg,DE,52.12,9.98,1569293207,55.58,93,75,1.12
291,Fairbanks,US,64.84,-147.72,1569293010,51.49,32,1,4.7
292,Bujumbura,BI,-3.36,29.37,1569293207,53.69,66,0,1.16
293,Novopokrovka,UA,49.84,36.56,1569293207,32.0,62,0,4.47
294,Rtishchevo,RU,52.26,43.79,1569293207,32.63,93,0,7.4
295,Atar,MR,20.52,-13.05,1569293208,92.21,19,0,13.47
296,Yulara,AU,-25.24,130.99,1569293208,53.6,81,90,16.11
297,Volksrust,ZA,-27.36,29.88,1569293208,37.49,96,28,3.24
298,Vanavara,RU,60.35,102.28,1569293209,50.27,69,38,11.52
299,Jesus Carranza,MX,31.49,-106.24,1569293209,80.29,42,1,7.76
300,Balikpapan,ID,-1.24,116.86,1569293209,86.45,54,65,4.38
301,Naklo nad Notecia,PL,53.14,17.6,1569293209,44.38,100,0,4.7
302,Mamallapuram,IN,12.63,80.17,1569293209,80.28,94,90,4.7
303,Mumford,GH,5.26,-0.76,1569293210,72.59,98,22,3.47
304,Pevek,RU,69.7,170.27,1569293210,35.15,77,100,13.6
305,Farafangana,MG,-22.82,47.83,1569293210,62.51,97,12,1.88
306,Saskylakh,RU,71.97,114.09,1569293210,38.57,53,100,22.5
307,Along,IN,28.17,94.8,1569293211,61.25,84,91,3.44
308,Khandyga,RU,62.65,135.58,1569293211,42.89,65,35,5.35
309,Faya,SA,18.39,42.45,1569293211,64.4,43,0,4.7
310,Ayan,IR,38.23,44.7,1569293211,42.53,36,0,4.7
311,Aasiaat,GL,68.71,-52.87,1569293212,36.23,95,100,4.14
312,Polovinnoye,RU,54.79,65.99,1569293212,38.75,84,100,12.95
313,Price,US,39.6,-110.81,1569293212,60.78,17,1,4.7
314,Leningradskiy,RU,69.38,178.42,1569293212,38.39,82,100,14.12
315,Anadyr,RU,64.73,177.51,1569293213,38.08,60,75,11.18
316,Kaohsiung,TW,22.62,120.31,1569293213,84.43,66,40,5.82
317,Genhe,CN,50.78,121.52,1569293213,51.71,40,100,5.17
318,Quatre Cocos,MU,-20.21,57.76,1569293213,69.39,68,75,16.11
319,Lima,PE,-12.06,-77.04,1569293213,62.6,88,90,10.29
320,Veshenskaya,RU,49.63,41.73,1569293214,35.69,68,0,3.71
321,Grand Forks,US,47.91,-97.06,1569293214,61.68,59,1,11.41
322,Labuhan,ID,-2.54,115.51,1569293214,97.79,33,85,1.9
323,Naze,NG,5.43,7.07,1569293214,73.49,97,100,3.87
324,Ocampo,MX,27.32,-102.4,1569293215,70.97,76,63,6.71
325,Komsomolskiy,RU,67.55,63.78,1569293215,34.79,96,100,16.62
326,Hangu,PK,33.53,71.06,1569293215,78.8,74,20,4.7
327,Husavik,CA,50.56,-96.99,1569293215,62.33,48,36,3.0
328,Secuieni,RO,46.26,24.97,1569293215,57.29,54,100,2.13
329,Zhigalovo,RU,54.81,105.15,1569293216,58.37,73,89,6.76
330,Coquimbo,CL,-29.95,-71.34,1569293216,52.5,81,0,6.93
331,Lexington,US,38.05,-84.5,1569293052,68.61,56,40,4.7
332,Lahij,YE,13.06,44.88,1569293216,83.57,70,20,2.15
333,Baicheng,CN,45.61,122.87,1569293216,70.61,23,0,8.14
334,Beachwood,US,41.46,-81.51,1569293217,64.09,52,1,17.22
335,San Juan Bautista,PY,-26.67,-57.15,1569293217,62.15,69,42,7.63
336,Santa Isabel,MX,32.63,-115.58,1569293217,85.24,9,1,17.22
337,Kavieng,PG,-2.57,150.8,1569293217,83.21,71,97,6.51
338,Wanning,AT,48.64,13.53,1569293217,54.46,93,75,9.17
339,Cartagena,ES,37.63,-1.0,1569293218,67.08,93,27,4.7
340,Grindavik,IS,63.84,-22.43,1569293218,48.96,100,90,10.29
341,Jind,IN,29.31,76.32,1569293218,82.49,66,0,6.51
342,Fuengirola,ES,36.54,-4.62,1569293049,64.78,77,0,6.93
343,Betafo,MG,-19.84,46.86,1569293218,53.87,81,0,4.25
344,Novyy Urengoy,RU,66.08,76.63,1569293219,34.79,85,100,22.53
345,Vostok,RU,46.45,135.83,1569293219,53.87,51,13,15.46
346,Weert,NL,51.25,5.71,1569293219,56.44,82,99,4.7
347,Micheweni,TZ,-4.97,39.83,1569293219,77.99,79,1,10.6
348,Kenai,US,60.55,-151.26,1569293220,54.9,50,1,6.93
349,Coruripe,BR,-10.12,-36.18,1569293220,68.99,96,67,4.34
350,Sola,TZ,-3.17,33.8,1569293220,68.09,57,0,5.37
351,Sao Felix do Xingu,BR,-6.64,-51.99,1569293220,73.67,79,58,1.92
352,Codrington,AU,-28.95,153.24,1569293221,72.43,43,40,9.17
353,San-Pedro,CI,4.75,-6.64,1569293221,71.69,99,70,2.3
354,Fougamou,GA,-1.22,10.59,1569293221,74.03,91,100,0.67
355,Whitehorse,CA,60.72,-135.06,1569292925,48.2,92,90,9.17
356,Shache,CN,38.42,77.24,1569293222,74.98,80,0,3.0
357,Dakar,SN,14.69,-17.45,1569292975,77.0,88,20,5.82
358,Ilulissat,GL,69.22,-51.1,1569293222,37.4,86,100,3.36
359,Fonte Boa,BR,-2.51,-66.09,1569293222,76.19,84,10,4.76
360,Moose Factory,CA,51.26,-80.61,1569293222,42.8,93,90,2.24
361,Mandiana,GN,10.62,-8.7,1569293223,72.05,94,98,0.4
362,Palana,RU,59.08,159.95,1569293223,46.85,88,100,21.03
363,Quthing,LS,-30.4,27.7,1569293223,37.13,80,0,4.63
364,San Roque,CO,6.49,-75.02,1569293224,55.02,93,75,3.36
365,Frontera,MX,18.53,-92.64,1569293224,77.0,100,75,8.7
366,Nenjiang,CN,49.17,125.23,1569293224,55.67,41,53,11.07
367,Alta Floresta,BR,-9.87,-56.08,1569293225,70.79,91,33,3.94
368,Belgrade,RS,44.82,20.46,1569293097,60.37,82,0,4.7
369,Laguna,BZ,16.17,-88.94,1569293225,82.4,83,20,0.63
370,Usinsk,RU,66.0,57.56,1569293225,35.87,96,100,19.17
371,Tongren,CN,27.72,109.18,1569293226,75.65,42,87,4.29
372,Buritizeiro,BR,-17.37,-44.96,1569293226,66.83,70,9,4.7
373,Norsup,VU,-16.07,167.38,1569293226,80.6,61,75,10.29
374,Nipawin,CA,53.36,-104.02,1569293226,59.0,30,1,14.99
375,Huarmey,PE,-10.07,-78.15,1569293226,61.07,95,100,11.77
376,Spirit River,CA,55.78,-118.84,1569293227,46.98,93,75,3.36
377,College,US,64.86,-147.8,1569293166,51.71,32,1,4.7
378,Punta Alta,AR,-27.46,-55.82,1569293227,66.2,59,0,5.82
379,Santa Maria,BR,-16.02,-48.01,1569293227,70.65,47,0,2.24
380,Eenhana,NA,-17.48,16.34,1569293227,71.6,13,27,8.05
381,Kushiro,JP,43.11,144.15,1569293228,68.0,68,20,5.82
382,Doka,SD,13.52,35.76,1569293228,72.95,91,0,8.1
383,Mastic Beach,US,40.77,-72.85,1569293228,74.28,78,90,11.41
384,Ponta Delgada,PT,37.73,-25.67,1569292944,68.72,82,20,2.24
385,Kahului,US,20.89,-156.47,1569293228,80.58,58,40,19.46
386,Eyl,SO,7.98,49.82,1569293229,73.13,73,2,11.3
387,Hope,US,33.67,-93.59,1569293229,77.79,83,1,4.81
388,Beringovskiy,RU,63.05,179.32,1569293229,40.01,40,18,6.26
389,Yangambi,CD,0.77,24.47,1569293229,70.25,97,32,1.14
390,Marzuq,YE,14.4,46.47,1569293229,70.07,50,60,1.83
391,Kalakamati,BW,-20.59,27.31,1569293230,63.23,81,0,14.88
392,Mehriz,IR,31.58,54.44,1569293230,73.4,27,0,6.93
393,Springbok,ZA,-29.67,17.88,1569293230,54.23,35,0,4.81
394,Tual,ID,-5.67,132.75,1569293230,78.71,87,91,14.88
395,Huatulco,MX,15.84,-96.33,1569293231,77.0,88,75,2.57
396,Maceio,BR,-9.67,-35.74,1569293039,75.2,88,40,2.24
397,Matamoros,US,25.87,-97.51,1569293231,82.38,83,40,6.93
398,Sampit,ID,-2.54,112.95,1569293231,89.87,54,8,4.41
399,Cabedelo,BR,-6.97,-34.84,1569293231,73.4,94,20,8.05
400,Timiryazevskiy,RU,47.05,39.61,1569293232,44.6,81,0,8.95
401,Nanpiao,CN,41.1,120.75,1569293232,73.85,38,0,15.64
402,Shumyachi,RU,53.86,32.43,1569293232,33.53,78,99,5.84
403,Lumeje,AO,-11.56,20.78,1569293232,69.35,54,45,5.35
404,Canon City,US,39.46,-117.13,1569293232,60.8,26,1,6.93
405,Saldanha,PT,41.42,-6.55,1569293233,56.75,80,0,2.1
406,Vila,IT,45.18,8.4,1569293233,53.94,100,46,4.7
407,Haines Junction,CA,60.75,-137.51,1569293233,36.59,79,100,3.42
408,Brae,GB,60.4,-1.35,1569293233,54.61,100,100,19.46
409,Shirokiy,RU,53.87,39.17,1569293234,30.99,82,36,7.81
410,Bristol,GB,51.45,-2.6,1569293234,61.57,93,70,12.75
411,San Rafael,AR,-34.61,-68.33,1569293234,58.19,28,0,4.56
412,Salalah,OM,17.01,54.1,1569293234,78.8,78,40,6.93
413,Turayf,SA,31.68,38.65,1569293235,64.4,42,0,6.93
414,Merrill,US,42.03,-121.6,1569293235,58.91,48,1,3.58
415,Lokoja,NG,7.8,6.74,1569293235,72.05,92,100,4.54
416,Svetlaya,RU,46.54,138.33,1569293235,57.47,35,0,14.14
417,Norderstedt,DE,53.71,9.99,1569293236,58.01,87,75,4.7
418,Yar-Sale,RU,66.83,70.83,1569293236,33.35,97,100,15.68
419,Bahia Blanca,AR,-38.72,-62.27,1569293232,50.63,53,0,4.36
420,Takoradi,GH,4.89,-1.75,1569293241,73.67,96,54,4.09
421,Vincennes,FR,48.85,2.44,1569293241,59.22,77,0,11.41
422,Tiznit,MA,29.7,-9.73,1569293146,67.37,92,1,9.44
423,Nhulunbuy,AU,-12.18,136.78,1569293241,84.2,62,75,14.99
424,Srandakan,ID,-7.94,110.25,1569293241,75.29,89,7,20.47
425,Jiaozuo,CN,35.21,113.25,1569293241,76.91,26,0,7.52
426,Berlevag,NO,70.86,29.09,1569293242,40.19,74,97,19.35
427,Port-Gentil,GA,-0.72,8.78,1569293242,77.99,85,94,11.95
428,Markova,RU,52.21,104.21,1569293242,60.8,63,0,11.18
429,Santana do Ipanema,BR,-9.37,-37.25,1569293242,68.45,95,28,6.67
430,Tuchola,PL,53.59,17.86,1569293242,43.11,100,0,4.7
431,Seoul,KR,37.57,126.98,1569293075,69.98,72,1,3.36
432,Tadine,NC,-21.55,167.88,1569293243,70.79,68,16,7.14
433,Kon Tum,VN,14.36,108.0,1569293243,84.29,52,6,1.63
434,Sorland,NO,67.67,12.69,1569293243,48.29,53,98,6.24
435,Banda Aceh,ID,5.56,95.32,1569293243,82.49,74,0,5.32
436,Dombas,NO,62.07,9.12,1569293244,32.63,98,6,0.96
437,Hearst,CA,49.69,-83.67,1569293244,47.39,93,54,4.0
438,Yeniseysk,RU,58.45,92.17,1569293244,49.37,71,63,10.09
439,Mayor Pablo Lagerenza,PY,-19.93,-60.77,1569293244,76.91,45,0,1.61
440,Rodrigues Alves,BR,-7.74,-72.65,1569293245,74.57,82,14,0.83
441,Aksarka,RU,66.56,67.8,1569293245,33.89,90,97,14.74
442,Shingu,JP,33.72,135.99,1569293245,73.4,78,75,3.36
443,Turan,RU,52.15,93.92,1569293245,58.73,60,0,1.57
444,Tutoia,BR,-2.76,-42.27,1569293245,72.23,92,42,2.35
445,Lavrentiya,RU,65.58,-170.99,1569293246,34.25,55,0,7.99
446,Ende,ID,-8.84,121.65,1569293246,77.63,77,0,4.12
447,Matina,CR,10.08,-83.29,1569293246,71.33,95,58,1.45
448,San Quintin,PH,17.54,120.52,1569293246,85.73,66,0,4.68
449,Fukue,JP,35.03,136.69,1569293247,77.31,73,75,10.29
450,Altay,CN,47.83,88.13,1569293247,65.93,33,67,3.89
451,Pearl Lagoon,NI,12.34,-83.67,1569293247,75.65,90,0,1.45
452,Bilibino,RU,68.06,166.44,1569293247,27.23,61,41,5.39
453,Champagnole,FR,46.75,5.91,1569293248,47.82,100,30,4.7
454,Ladario,PT,40.7,-7.74,1569293248,55.31,95,8,5.19
455,Kozhva,RU,65.11,57.05,1569293248,33.53,91,100,10.54
456,Isla Mujeres,MX,21.23,-86.73,1569293038,78.42,100,40,2.24
457,Tilichiki,RU,60.47,166.1,1569293249,45.23,90,100,5.3
458,Kurumkan,RU,54.33,110.32,1569293249,55.67,51,0,5.32
459,Zarichne,UA,49.02,37.94,1569293249,37.13,62,0,3.36
460,Chadiza,ZM,-14.06,32.43,1569293249,66.47,52,0,6.2
461,Nizhniy Baskunchak,RU,48.22,46.83,1569293249,40.73,69,25,4.05
462,Pitimbu,BR,-7.47,-34.81,1569293250,73.4,94,20,8.05
463,Jackson,US,43.48,-110.76,1569292963,52.41,47,5,8.05
464,Fort Nelson,CA,58.81,-122.69,1569293250,51.8,58,75,4.7
465,Ayna,ES,38.55,-2.07,1569293250,56.48,93,0,4.7
466,Bose,IT,45.46,8.01,1569293250,53.56,93,0,2.24
467,Lhokseumawe,ID,5.18,97.15,1569293215,80.69,71,1,5.48
468,Makakilo City,US,21.35,-158.09,1569293251,80.56,94,90,6.93
469,Banepa,NP,27.63,85.52,1569293251,68.0,100,75,3.36
470,Ahipara,NZ,-35.17,173.16,1569293251,57.0,100,67,29.8
471,Kurilsk,RU,45.23,147.88,1569293251,54.23,88,51,18.16
472,Zambezi,ZM,-13.55,23.12,1569293252,64.13,53,0,4.45
473,Tarbert,GB,55.86,-5.42,1569293252,57.43,100,100,12.75
474,Batemans Bay,AU,-35.71,150.18,1569293252,58.23,45,0,5.01
475,Henties Bay,NA,-22.12,14.28,1569293252,57.0,87,0,5.01
476,Payson,US,40.04,-111.73,1569293220,60.22,47,1,3.36
477,Bud,NO,62.91,6.91,1569293253,47.95,87,0,6.93
478,Mugur-Aksy,RU,50.38,90.44,1569293253,48.11,46,7,9.75
479,Jining,CN,35.41,116.58,1569293253,82.31,39,0,3.78
480,Gucheng,CN,32.27,111.65,1569293253,75.99,59,100,7.0
481,Chute-aux-Outardes,CA,49.12,-68.38,1569293253,49.21,93,1,4.7
482,Udachnyy,RU,66.42,112.4,1569293254,35.6,59,75,8.95
483,Playas,EC,-2.64,-80.39,1569293254,66.83,92,98,10.29
484,Lorengau,PG,-2.02,147.27,1569293254,85.73,64,90,3.24
485,Tura,RU,64.27,100.22,1569293254,40.91,66,57,12.91
486,Primero de Enero,CU,21.94,-78.43,1569293254,82.4,83,40,8.05
487,Ixtapa,MX,20.71,-105.21,1569293255,83.55,74,90,4.7
488,Northam,AU,-31.65,116.67,1569293255,77.0,23,0,17.22
489,Gavrilovka Vtoraya,RU,52.88,42.77,1569293255,33.35,91,0,7.74
490,Brooks,CA,50.57,-111.89,1569293069,55.99,58,100,10.0
491,Vallenar,CL,-28.58,-70.76,1569293255,49.01,74,0,1.57
492,Iralaya,HN,15.0,-83.23,1569293256,77.09,89,18,2.44
493,Namatanai,PG,-3.66,152.44,1569293256,80.15,83,73,10.2
494,Tchaourou,BJ,8.89,2.6,1569293256,72.95,95,93,3.71
495,Jardim,BR,-21.48,-56.15,1569293256,74.75,48,0,4.05
496,Port Blair,IN,11.67,92.75,1569293257,81.05,82,89,10.49
497,Cadillac,US,44.25,-85.4,1569293257,53.51,93,1,2.84
498,Ambon,FR,47.55,-2.56,1569293257,62.4,100,100,13.87
499,Lompoc,US,34.64,-120.46,1569293257,60.01,93,90,10.63
